site,city,lat,lng,elevation_ft,elevation_m
Atqasuk,Atqasuk,70.452417, -157.411778,74,22
Barrow 1,Barrow 1,71.322417,-156.610889,30,9
Barrow 2,Barrow 2,71.304889,-156.588861,16,4
Betty Pingo,Betty Pingo,70.282583,-148.893472,40,12
Sagwon 1,Sagwon 1,69.4395,-148.668833,800,244
Sagwon 2,Sagwon 2,69.402472,-148.797778,1080,329
Toolik,Toolik,68.623028,-149.609833,2490,759
Westdock,Westdock,70.370389,-148.568667,10,3
